[
    {
        "name": "Monday",
        "icon": "00",
        "id": 1001,
        "temperature": "N/A",
        "tMax": "-",
        "tMin": "-",
        "coordinates": {
            "longitude": -116.166868,
            "latitude": 34.011286
        }
    },
    {
        "name": "Tuesday",
        "icon": "00",
        "id": 1002,
        "temperature": "N/A",
        "tMax": "-",
        "tMin": "-",
        "coordinates": {
            "longitude": -152.665167,
            "latitude": 59.980167
        }
    },
    {
        "name": "Wednesday",
        "icon": "00",
        "id": 1003,
        "temperature": "N/A",
        "tMax": "-",
        "tMin": "-",
        "coordinates": {
            "longitude": -135.334571,
            "latitude": 59.560551
        }
    },
    {
        "name": "Thursday",
        "icon": "00",
        "id": 1004,
        "temperature": "N/A",
        "tMax": "-",
        "tMin": "-",
        "coordinates": {
            "longitude": -113.536248,
            "latitude": 48.69423
        }
    },
    {
        "name": "Friday",
        "icon": "00",
        "id": 1005,
        "temperature": "N/A",
        "tMax": "-",
        "tMin": "-",
        "coordinates": {
            "longitude": -153.849883,
            "latitude": 60.641684
        }
    },
    {
        "name": "Saturday",
        "icon": "00",
        "id": 1006,
        "temperature": "N/A",
        "tMax": "-",
        "tMin": "-",
        "coordinates": {
            "longitude": -113.934831,
            "latitude": 48.56002
        }
    },
    {
        "name": "Sunday",
        "icon": "00",
        "id": 1007,
        "temperature": "N/A",
        "tMax": "-",
        "tMin": "-",
        "coordinates": {
            "longitude": -143.122586,
            "latitude": 65.350021
        }
    }
]
